{
   "plus_code" : {
      "compound_code" : "QW77+MH6 İzmit/Kocaeli, Turkey",
      "global_code" : "8GGFQW77+MH6"
   },
   "results" : [
      {
         "address_components" : [
            {
               "long_name" : "40",
               "short_name" : "40",
               "types" : [ "street_number" ]
            },
            {
               "long_name" : "Övül Tezişler Caddesi",
               "short_name" : "Övül Tezişler Cd.",
               "types" : [ "route" ]
            },
            {
               "long_name" : "Kozluk",
               "short_name" : "Kozluk",
               "types" : [ "administrative_area_level_4", "political" ]
            },
            {
               "long_name" : "İzmit",
               "short_name" : "İzmit",
               "types" : [ "administrative_area_level_2", "political" ]
            },
            {
               "long_name" : "Kocaeli",
               "short_name" : "Kocaeli",
               "types" : [ "administrative_area_level_1", "political" ]
            },
            {
               "long_name" : "Turkey",
               "short_name" : "TR",
               "types" : [ "country", "political" ]
            },
            {
               "long_name" : "41200",
               "short_name" : "41200",
               "types" : [ "postal_code" ]
            }
         ],
         "formatted_address" : "Kozluk, Övül Tezişler Cd. No:40, 41200 İzmit/Kocaeli, Turkey",
         "geometry" : {
            "bounds" : {
               "northeast" : {
                  "lat" : 40.76395369999999,
                  "lng" : 29.913971
               },
               "southwest" : {
                  "lat" : 40.7638427,
                  "lng" : 29.9138017
               }
            },
            "location" : {
               "lat" : 40.7639027,
               "lng" : 29.9138892
            },
            "location_type" : "ROOFTOP",
            "viewport" : {
               "northeast" : {
                  "lat" : 40.7652471802915,
                  "lng" : 29.9152353302915
               },
               "southwest" : {
                  "lat" : 40.7625492197085,
                  "lng" : 29.9125373697085
               }
            }
         },
         "place_id" : "ChIJi21NGo9FyxQRSCG9qmkM-hY",
         "types" : [ "premise" ]
      },
      {
         "address_components" : [
            {
               "long_name" : "İstanbul İzmit Yolu",
               "short_name" : "D100",
               "types" : [ "route" ]
            },
            {
               "long_name" : "Kozluk",
               "short_name" : "Kozluk",
               "types" : [ "administrative_area_level_4", "political" ]
            },
            {
               "long_name" : "İzmit",
               "short_name" : "İzmit",
               "types" : [ "administrative_area_level_2", "political" ]
            },
            {
               "long_name" : "Kocaeli",
               "short_name" : "Kocaeli",
               "types" : [ "administrative_area_level_1", "political" ]
            },
            {
               "long_name" : "Turkey",
               "short_name" : "TR",
               "types" : [ "country", "political" ]
            },
            {
               "long_name" : "41200",
               "short_name" : "41200",
               "types" : [ "postal_code" ]
            }
         ],
         "formatted_address" : "Kozluk, D100, 41200 İzmit/Kocaeli, Turkey",
         "geometry" : {
            "bounds" : {
               "northeast" : {
                  "lat" : 40.7642925,
                  "lng" : 29.914236
               },
               "southwest" : {
                  "lat" : 40.7639943,
                  "lng" : 29.9136369
               }
            },
            "location" : {
               "lat" : 40.7641446,
               "lng" : 29.9139375
            },
            "location_type" : "GEOMETRIC_CENTER",
            "viewport" : {
               "northeast" : {
                  "lat" : 40.7654923802915,
                  "lng" : 29.9152854302915
               },
               "southwest" : {
                  "lat" : 40.7627944197085,
                  "lng" : 29.91258746970851
               }
            }
         },
         "place_id" : "ChIJ1VZMGI9FyxQRjG51TEjWJ6Y",
         "types" : [ "route" ]
      },
      {
         "address_components" : [
            {
               "long_name" : "QW77+MH",
               "short_name" : "QW77+MH",
               "types" : [ "plus_code" ]
            },
            {
               "long_name" : "İzmit",
               "short_name" : "İzmit",
               "types" : [ "administrative_area_level_2", "political" ]
            },
            {
               "long_name" : "Kocaeli",
               "short_name" : "Kocaeli",
               "types" : [ "administrative_area_level_1", "political" ]
            },
            {
               "long_name" : "Turkey",
               "short_name" : "TR",
               "types" : [ "country", "political" ]
            }
         ],
         "formatted_address" : "QW77+MH İzmit/Kocaeli, Turkey",
         "geometry" : {
            "bounds" : {
               "northeast" : {
                  "lat" : 40.76425,
                  "lng" : 29.914
               },
               "southwest" : {
                  "lat" : 40.764125,
                  "lng" : 29.91387499999999
               }
            },
            "location" : {
               "lat" : 40.7641613,
               "lng" : 29.9138832
            },
            "location_type" : "GEOMETRIC_CENTER",
            "viewport" : {
               "northeast" : {
                  "lat" : 40.7655364802915,
                  "lng" : 29.91528648029149
               },
               "southwest" : {
                  "lat" : 40.7628385197085,
                  "lng" : 29.9125885197085
               }
            }
         },
         "place_id" : "GhIJNi-YCdBhREARI13YP_TpPUA",
         "plus_code" : {
            "compound_code" : "QW77+MH İzmit/Kocaeli, Turkey",
            "global_code" : "8GGFQW77+MH"
         },
         "types" : [ "plus_code" ]
      },
      {
         "address_components" : [
            {
               "long_name" : "41200",
               "short_name" : "41200",
               "types" : [ "postal_code" ]
            },
            {
               "long_name" : "Kozluk",
               "short_name" : "Kozluk",
               "types" : [ "administrative_area_level_4", "political" ]
            },
            {
               "long_name" : "İzmit",
               "short_name" : "İzmit",
               "types" : [ "administrative_area_level_2", "political" ]
            },
            {
               "long_name" : "Kocaeli",
               "short_name" : "Kocaeli",
               "types" : [ "administrative_area_level_1", "political" ]
            },
            {
               "long_name" : "Turkey",
               "short_name" : "TR",
               "types" : [ "country", "political" ]
            }
         ],
         "formatted_address" : "Kozluk, 41200 İzmit/Kocaeli, Turkey",
         "geometry" : {
            "bounds" : {
               "northeast" : {
                  "lat" : 40.767756,
                  "lng" : 29.9201611
               },
               "southwest" : {
                  "lat" : 40.7583399,
                  "lng" : 29.9027231
               }
            },
            "location" : {
               "lat" : 40.7625464,
               "lng" : 29.9118896
            },
            "location_type" : "APPROXIMATE",
            "viewport" : {
               "northeast" : {
                  "lat" : 40.767756,
                  "lng" : 29.9201611
               },
               "southwest" : {
                  "lat" : 40.7583399,
                  "lng" : 29.9027231
               }
            }
         },
         "place_id" : "ChIJX8HBbo5FyxQR_RHLKrfpg44",
         "types" : [ "postal_code" ]
      },
      {
         "address_components" : [
            {
               "long_name" : "Kozluk",
               "short_name" : "Kozluk",
               "types" : [ "administrative_area_level_4", "political" ]
            },
            {
               "long_name" : "İzmit",
               "short_name" : "İzmit",
               "types" : [ "administrative_area_level_2", "political" ]
            },
            {
               "long_name" : "Kocaeli",
               "short_name" : "Kocaeli",
               "types" : [ "administrative_area_level_1", "political" ]
            },
            {
               "long_name" : "Turkey",
               "short_name" : "TR",
               "types" : [ "country", "political" ]
            },
            {
               "long_name" : "41200",
               "short_name" : "41200",
               "types" : [ "postal_code" ]
            }
         ],
         "formatted_address" : "Kozluk, 41200 İzmit/Kocaeli, Turkey",
         "geometry" : {
            "bounds" : {
               "northeast" : {
                  "lat" : 40.767756,
                  "lng" : 29.9201611
               },
               "southwest" : {
                  "lat" : 40.7583399,
                  "lng" : 29.9027231
               }
            },
            "location" : {
               "lat" : 40.7625464,
               "lng" : 29.9118896
            },
            "location_type" : "APPROXIMATE",
            "viewport" : {
               "northeast" : {
                  "lat" : 40.767756,
                  "lng" : 29.9201611
               },
               "southwest" : {
                  "lat" : 40.7583399,
                  "lng" : 29.9027231
               }
            }
         },
         "place_id" : "ChIJtVDtbo5FyxQRglv9ush2Jlc",
         "types" : [ "administrative_area_level_4", "political" ]
      },
      {
         "address_components" : [
            {
               "long_name" : "İzmit",
               "short_name" : "İzmit",
               "types" : [ "locality", "political" ]
            },
            {
               "long_name" : "İzmit",
               "short_name" : "İzmit",
               "types" : [ "administrative_area_level_2", "political" ]
            },
            {
               "long_name" : "Kocaeli",
               "short_name" : "Kocaeli",
               "types" : [ "administrative_area_level_1", "political" ]
            },
            {
               "long_name" : "Turkey",
               "short_name" : "TR",
               "types" : [ "country", "political" ]
            }
         ],
         "formatted_address" : "İzmit, Kocaeli, Turkey",
         "geometry" : {
            "bounds" : {
               "northeast" : {
                  "lat" : 40.805401,
                  "lng" : 30.014834
               },
               "southwest" : {
                  "lat" : 40.736827,
                  "lng" : 29.8541681
               }
            },
            "location" : {
               "lat" : 40.7654408,
               "lng" : 29.9408089
            },
            "location_type" : "APPROXIMATE",
            "viewport" : {
               "northeast" : {
                  "lat" : 40.805401,
                  "lng" : 30.014834
               },
               "southwest" : {
                  "lat" : 40.736827,
                  "lng" : 29.8541681
               }
            }
         },
         "place_id" : "ChIJnftLZGZPyxQRuX5rWOcOaYI",
         "types" : [ "locality", "political" ]
      },
      {
         "address_components" : [
            {
               "long_name" : "İzmit",
               "short_name" : "İzmit",
               "types" : [ "administrative_area_level_2", "political" ]
            },
            {
               "long_name" : "Kocaeli",
               "short_name" : "Kocaeli",
               "types" : [ "administrative_area_level_1", "political" ]
            },
            {
               "long_name" : "Turkey",
               "short_name" : "TR",
               "types" : [ "country", "political" ]
            }
         ],
         "formatted_address" : "İzmit/Kocaeli, Turkey",
         "geometry" : {
            "bounds" : {
               "northeast" : {
                  "lat" : 40.971557,
                  "lng" : 30.2639339
               },
               "southwest" : {
                  "lat" : 40.720553,
                  "lng" : 29.8541681
               }
            },
            "location" : {
               "lat" : 40.8506635,
               "lng" : 30.0202964
            },
            "location_type" : "APPROXIMATE",
            "viewport" : {
               "northeast" : {
                  "lat" : 40.971557,
                  "lng" : 30.2639339
               },
               "southwest" : {
                  "lat" : 40.720553,
                  "lng" : 29.8541681
               }
            }
         },
         "place_id" : "ChIJL2DfPLZQyxQRitx6sY9PIGU",
         "types" : [ "administrative_area_level_2", "political" ]
      },
      {
         "address_components" : [
            {
               "long_name" : "Kocaeli",
               "short_name" : "Kocaeli",
               "types" : [ "administrative_area_level_1", "political" ]
            },
            {
               "long_name" : "Turkey",
               "short_name" : "TR",
               "types" : [ "country", "political" ]
            }
         ],
         "formatted_address" : "Kocaeli, Turkey",
         "geometry" : {
            "bounds" : {
               "northeast" : {
                  "lat" : 41.20976,
                  "lng" : 30.367743
               },
               "southwest" : {
                  "lat" : 40.524151,
                  "lng" : 29.3331261
               }
            },
            "location" : {
               "lat" : 40.8532704,
               "lng" : 29.8815203
            },
            "location_type" : "APPROXIMATE",
            "viewport" : {
               "northeast" : {
                  "lat" : 41.20976,
                  "lng" : 30.367743
               },
               "southwest" : {
                  "lat" : 40.524151,
                  "lng" : 29.3331261
               }
            }
         },
         "place_id" : "ChIJQ8zKb5QgyxQRWdhW642zLKg",
         "types" : [ "administrative_area_level_1", "political" ]
      },
      {
         "address_components" : [
            {
               "long_name" : "Turkey",
               "short_name" : "TR",
               "types" : [ "country", "political" ]
            }
         ],
         "formatted_address" : "Turkey",
         "geometry" : {
            "bounds" : {
               "northeast" : {
                  "lat" : 42.3666999,
                  "lng" : 44.8178449
               },
               "southwest" : {
                  "lat" : 35.808592,
                  "lng" : 25.5377
               }
            },
            "location" : {
               "lat" : 38.963745,
               "lng" : 35.243322
            },
            "location_type" : "APPROXIMATE",
            "viewport" : {
               "northeast" : {
                  "lat" : 42.3666999,
                  "lng" : 44.8178449
               },
               "southwest" : {
                  "lat" : 35.808592,
                  "lng" : 25.5377
               }
            }
         },
         "place_id" : "ChIJcSZPllwVsBQRKl9iKtTb2UA",
         "types" : [ "country", "political" ]
      }
   ],
   "status" : "OK"
}
